var refugee_camps = {"type": "FeatureCollection", "features": [{"type":"Feature","geometry":{"type":"Point","coordinates":[41.221,34.418]},"properties":{"cartodb_id":1,"country":"Iraq","designatio":"Official Camp Open","administra":"Al Anbar","name":"Al Obaidy","lat":34.418,"long":41.221,"fips":"IZ","iso_alpha2":"IQ","iso_alpha3":"IRQ","iso_num":368,"stanag":"IRQ","tld":".iq","genc2":"IQ"}},{"type":"Feature","geometry":{"type":"Point","coordinates":[45.610139,35.375216]},"properties":{"cartodb_id":2,"country":"Iraq","designatio":"Official Camp Open","administra":"As Sulaymaniyah","name":"Arbat Camp","lat":35.375216,"long":45.610139,"fips":"IZ","iso_alpha2":"IQ","iso_alpha3":"IRQ","iso_num":368,"stanag":"IRQ","tld":".iq","genc2":"IQ"}},{"type":"Feature","geometry":{"type":"Point","coordinates":[44.34,36.498]},"properties":{"cartodb_id":3,"country":"Iraq","designatio":"Official Camp Open","administra":"Erbil","name":"Basirma","lat":36.498,"long":44.34,"fips":"IZ","iso_alpha2":"IQ","iso_alpha3":"IRQ","iso_num":368,"stanag":"IRQ","tld":".iq","genc2":"IQ"}},{"type":"Feature","geometry":{"type":"Point","coordinates":[43.889,36.47]},"properties":{"cartodb_id":4,"country":"Iraq","designatio":"Official Camp Open","administra":"Erbil","name":"Darashakran","lat":36.47,"long":43.889,"fips":"IZ","iso_alpha2":"IQ","iso_alpha3":"IRQ","iso_num":368,"stanag":"IRQ","tld":".iq","genc2":"IQ"}},{"type":"Feature","geometry":{"type":"Point","coordinates":[42.88,36.78]},"properties":{"cartodb_id":5,"country":"Iraq","designatio":"Official Camp Open","administra":"Dahuk","name":"Domiz 1","lat":36.78,"long":42.88,"fips":"IZ","iso_alpha2":"IQ","iso_alpha3":"IRQ","iso_num":368,"stanag":"IRQ","tld":".iq","genc2":"IQ"}},{"type":"Feature","geometry":{"type":"Point","coordinates":[42.895752,36.763926]},"properties":{"cartodb_id":6,"country":"Iraq","designatio":"Official Camp Open","administra":"Dahuk","name":"Domiz 2","lat":36.763926,"long":42.895752,"fips":"IZ","iso_alpha2":"IQ","iso_alpha3":"IRQ","iso_num":368,"stanag":"IRQ","tld":".iq","genc2":"IQ"}},{"type":"Feature","geometry":{"type":"Point","coordinates":[43.608,36.343]},"properties":{"cartodb_id":7,"country":"Iraq","designatio":"Official Camp Open","administra":"Ninawa","name":"Gawilan","lat":36.343,"long":43.608,"fips":"IZ","iso_alpha2":"IQ","iso_alpha3":"IRQ","iso_num":368,"stanag":"IRQ","tld":".iq","genc2":"IQ"}},{"type":"Feature","geometry":{"type":"Point","coordinates":[43.814,36.344]},"properties":{"cartodb_id":8,"country":"Iraq","designatio":"Official Camp Open","administra":"Erbil","name":"Kawergosk","lat":36.344,"long":43.814,"fips":"IZ","iso_alpha2":"IQ","iso_alpha3":"IRQ","iso_num":368,"stanag":"IRQ","tld":".iq","genc2":"IQ"}},{"type":"Feature","geometry":{"type":"Point","coordinates":[44.038,35.983]},"properties":{"cartodb_id":9,"country":"Iraq","designatio":"Official Camp Open","administra":"Erbil","name":"Qushtapa","lat":35.983,"long":44.038,"fips":"IZ","iso_alpha2":"IQ","iso_alpha3":"IRQ","iso_num":368,"stanag":"IRQ","tld":".iq","genc2":"IQ"}},{"type":"Feature","geometry":{"type":"Point","coordinates":[43.879,36.736]},"properties":{"cartodb_id":10,"country":"Iraq","designatio":"Transitional Facility Open","administra":"Ninawa","name":"Akre","lat":36.736,"long":43.879,"fips":"IZ","iso_alpha2":"IQ","iso_alpha3":"IRQ","iso_num":368,"stanag":"IRQ","tld":".iq","genc2":"IQ"}},{"type":"Feature","geometry":{"type":"Point","coordinates":[36.588,31.911]},"properties":{"cartodb_id":11,"country":"Jordan","designatio":"Official Camp Open","administra":"Zarqa","name":"Azraq","lat":31.911,"long":36.588,"fips":"JO","iso_alpha2":"JO","iso_alpha3":"JOR","iso_num":400,"stanag":"JOR","tld":".jo","genc2":"JO"}},{"type":"Feature","geometry":{"type":"Point","coordinates":[36.448,32.032]},"properties":{"cartodb_id":12,"country":"Jordan","designatio":"Official Camp Open","administra":"Zarqa","name":"Mrajeeb al-Fhood","lat":32.032,"long":36.448,"fips":"JO","iso_alpha2":"JO","iso_alpha3":"JOR","iso_num":400,"stanag":"JOR","tld":".jo","genc2":"JO"}},{"type":"Feature","geometry":{"type":"Point","coordinates":[36.317,32.3]},"properties":{"cartodb_id":13,"country":"Jordan","designatio":"Official Camp Open","administra":"Al Mafraq","name":"Za'atri","lat":32.3,"long":36.317,"fips":"JO","iso_alpha2":"JO","iso_alpha3":"JOR","iso_num":400,"stanag":"JOR","tld":".jo","genc2":"JO"}},{"type":"Feature","geometry":{"type":"Point","coordinates":[36.024,32.527]},"properties":{"cartodb_id":14,"country":"Jordan","designatio":"Other Site Open","administra":"Irbid","name":"King Abdullah Park","lat":32.527,"long":36.024,"fips":"JO","iso_alpha2":"JO","iso_alpha3":"JOR","iso_num":400,"stanag":"JOR","tld":".jo","genc2":"JO"}},{"type":"Feature","geometry":{"type":"Point","coordinates":[35.969,32.456]},"properties":{"cartodb_id":15,"country":"Jordan","designatio":"Other Site Open","administra":"Irbid","name":"Cyber City","lat":32.456,"long":35.969,"fips":"JO","iso_alpha2":"JO","iso_alpha3":"JOR","iso_num":400,"stanag":"JOR","tld":".jo","genc2":"JO"}},{"type":"Feature","geometry":{"type":"Point","coordinates":[36.233,32.414]},"properties":{"cartodb_id":16,"country":"Jordan","designatio":"Reception Center Open","administra":"Al Mafraq","name":"Rabaa' al-Sarhan","lat":32.414,"long":36.233,"fips":"JO","iso_alpha2":"JO","iso_alpha3":"JOR","iso_num":400,"stanag":"JOR","tld":".jo","genc2":"JO"}},{"type":"Feature","geometry":{"type":"Point","coordinates":[35.49,37.043]},"properties":{"cartodb_id":17,"country":"Turkey","designatio":"Official Camp Open","administra":"Adana","name":"Adana","lat":37.043,"long":35.49,"fips":"TU","iso_alpha2":"TR","iso_alpha3":"TUR","iso_num":792,"stanag":"TUR","tld":".tr","genc2":"TR"}},{"type":"Feature","geometry":{"type":"Point","coordinates":[38.229,37.546]},"properties":{"cartodb_id":18,"country":"Turkey","designatio":"Official Camp Open","administra":"Adiyaman","name":"Adiyaman","lat":37.546,"long":38.229,"fips":"TU","iso_alpha2":"TR","iso_alpha3":"TUR","iso_num":792,"stanag":"TUR","tld":".tr","genc2":"TR"}},{"type":"Feature","geometry":{"type":"Point","coordinates":[36.239,36.13]},"properties":{"cartodb_id":19,"country":"Turkey","designatio":"Official Camp Open","administra":"Hatay","name":"Altinozu 1","lat":36.13,"long":36.239,"fips":"TU","iso_alpha2":"TR","iso_alpha3":"TUR","iso_num":792,"stanag":"TUR","tld":".tr","genc2":"TR"}},{"type":"Feature","geometry":{"type":"Point","coordinates":[36.364,36.183]},"properties":{"cartodb_id":20,"country":"Turkey","designatio":"Official Camp Open","administra":"Hatay","name":"Altinozu 2","lat":36.183,"long":36.364,"fips":"TU","iso_alpha2":"TR","iso_alpha3":"TUR","iso_num":792,"stanag":"TUR","tld":".tr","genc2":"TR"}},{"type":"Feature","geometry":{"type":"Point","coordinates":[36.352,36.235]},"properties":{"cartodb_id":21,"country":"Turkey","designatio":"Official Camp Open","administra":"Hatay","name":"Apaydin","lat":36.235,"long":36.352,"fips":"TU","iso_alpha2":"TR","iso_alpha3":"TUR","iso_num":792,"stanag":"TUR","tld":".tr","genc2":"TR"}},{"type":"Feature","geometry":{"type":"Point","coordinates":[39.924,36.814]},"properties":{"cartodb_id":22,"country":"Turkey","designatio":"Official Camp Open","administra":"Sanliurfa","name":"Ceylanpinar","lat":36.814,"long":39.924,"fips":"TU","iso_alpha2":"TR","iso_alpha3":"TUR","iso_num":792,"stanag":"TUR","tld":".tr","genc2":"TR"}},{"type":"Feature","geometry":{"type":"Point","coordinates":[40.271111,37.363333]},"properties":{"cartodb_id":23,"country":"Turkey","designatio":"Official Camp Open","administra":"Mardin","name":"Derik","lat":37.363333,"long":40.271111,"fips":"TU","iso_alpha2":"TR","iso_alpha3":"TUR","iso_num":792,"stanag":"TUR","tld":".tr","genc2":"TR"}},{"type":"Feature","geometry":{"type":"Point","coordinates":[38.932,36.873]},"properties":{"cartodb_id":24,"country":"Turkey","designatio":"Official Camp Open","administra":"Sanliurfa","name":"Harran Kokenli","lat":36.873,"long":38.932,"fips":"TU","iso_alpha2":"TR","iso_alpha3":"TUR","iso_num":792,"stanag":"TUR","tld":".tr","genc2":"TR"}},{"type":"Feature","geometry":{"type":"Point","coordinates":[36.61815,36.984384]},"properties":{"cartodb_id":25,"country":"Turkey","designatio":"Official Camp Open","administra":"Gaziantep","name":"Islahiye","lat":36.984384,"long":36.61815,"fips":"TU","iso_alpha2":"TR","iso_alpha3":"TUR","iso_num":792,"stanag":"TUR","tld":".tr","genc2":"TR"}},{"type":"Feature","geometry":{"type":"Point","coordinates":[36.589,36.898]},"properties":{"cartodb_id":26,"country":"Turkey","designatio":"Official Camp Open","administra":"Gaziantep","name":"Islahiye II","lat":36.898,"long":36.589,"fips":"TU","iso_alpha2":"TR","iso_alpha3":"TUR","iso_num":792,"stanag":"TUR","tld":".tr","genc2":"TR"}},{"type":"Feature","geometry":{"type":"Point","coordinates":[36.973,37.564]},"properties":{"cartodb_id":27,"country":"Turkey","designatio":"Official Camp Open","administra":"Kahramanmaras","name":"Kahmanaras-Turkoglu","lat":37.564,"long":36.973,"fips":"TU","iso_alpha2":"TR","iso_alpha3":"TUR","iso_num":792,"stanag":"TUR","tld":".tr","genc2":"TR"}},{"type":"Feature","geometry":{"type":"Point","coordinates":[38.028,36.876]},"properties":{"cartodb_id":28,"country":"Turkey","designatio":"Official Camp Open","administra":"Gaziantep","name":"Karkamis","lat":36.876,"long":38.028,"fips":"TU","iso_alpha2":"TR","iso_alpha3":"TUR","iso_num":792,"stanag":"TUR","tld":".tr","genc2":"TR"}},{"type":"Feature","geometry":{"type":"Point","coordinates":[37.363,36.661]},"properties":{"cartodb_id":29,"country":"Turkey","designatio":"Official Camp Open","administra":"Kilis","name":"Kilis-Elbeyli","lat":36.661,"long":37.363,"fips":"TU","iso_alpha2":"TR","iso_alpha3":"TUR","iso_num":792,"stanag":"TUR","tld":".tr","genc2":"TR"}},{"type":"Feature","geometry":{"type":"Point","coordinates":[37.087,36.646]},"properties":{"cartodb_id":30,"country":"Turkey","designatio":"Official Camp Open","administra":"Kilis","name":"Kilis-Oncupinar","lat":36.646,"long":37.087,"fips":"TU","iso_alpha2":"TR","iso_alpha3":"TUR","iso_num":792,"stanag":"TUR","tld":".tr","genc2":"TR"}},{"type":"Feature","geometry":{"type":"Point","coordinates":[38.153,38.34]},"properties":{"cartodb_id":31,"country":"Turkey","designatio":"Official Camp Open","administra":"Malatya","name":"Malatya-Beydagi","lat":38.34,"long":38.153,"fips":"TU","iso_alpha2":"TR","iso_alpha3":"TUR","iso_num":792,"stanag":"TUR","tld":".tr","genc2":"TR"}},{"type":"Feature","geometry":{"type":"Point","coordinates":[41.389,37.411]},"properties":{"cartodb_id":32,"country":"Turkey","designatio":"Official Camp Open","administra":"Mardin","name":"Midyat 1","lat":37.411,"long":41.389,"fips":"TU","iso_alpha2":"TR","iso_alpha3":"TUR","iso_num":792,"stanag":"TUR","tld":".tr","genc2":"TR"}},{"type":"Feature","geometry":{"type":"Point","coordinates":[41.393397,37.413702]},"properties":{"cartodb_id":33,"country":"Turkey","designatio":"Official Camp Open","administra":"Mardin","name":"Midyat 2","lat":37.413702,"long":41.393397,"fips":"TU","iso_alpha2":"TR","iso_alpha3":"TUR","iso_num":792,"stanag":"TUR","tld":".tr","genc2":"TR"}},{"type":"Feature","geometry":{"type":"Point","coordinates":[37.903607,37.043057]},"properties":{"cartodb_id":34,"country":"Turkey","designatio":"Official Camp Open","administra":"Gaziantep","name":"Nizip 1","lat":37.043057,"long":37.903607,"fips":"TU","iso_alpha2":"TR","iso_alpha3":"TUR","iso_num":792,"stanag":"TUR","tld":".tr","genc2":"TR"}},{"type":"Feature","geometry":{"type":"Point","coordinates":[37.894919,37.046562]},"properties":{"cartodb_id":35,"country":"Turkey","designatio":"Official Camp Open","administra":"Gaziantep","name":"Nizip 2","lat":37.046562,"long":37.894919,"fips":"TU","iso_alpha2":"TR","iso_alpha3":"TUR","iso_num":792,"stanag":"TUR","tld":".tr","genc2":"TR"}},{"type":"Feature","geometry":{"type":"Point","coordinates":[36.205,37.135]},"properties":{"cartodb_id":36,"country":"Turkey","designatio":"Official Camp Open","administra":"Osmaniye","name":"Osmaniye","lat":37.135,"long":36.205,"fips":"TU","iso_alpha2":"TR","iso_alpha3":"TUR","iso_num":792,"stanag":"TUR","tld":".tr","genc2":"TR"}},{"type":"Feature","geometry":{"type":"Point","coordinates":[38.561,36.914]},"properties":{"cartodb_id":37,"country":"Turkey","designatio":"Official Camp Open","administra":"Sanliurfa","name":"Suruc","lat":36.914,"long":38.561,"fips":"TU","iso_alpha2":"TR","iso_alpha3":"TUR","iso_num":792,"stanag":"TUR","tld":".tr","genc2":"TR"}},{"type":"Feature","geometry":{"type":"Point","coordinates":[36.052,35.907]},"properties":{"cartodb_id":38,"country":"Turkey","designatio":"Official Camp Open","administra":"Hatay","name":"Yayladagi 1","lat":35.907,"long":36.052,"fips":"TU","iso_alpha2":"TR","iso_alpha3":"TUR","iso_num":792,"stanag":"TUR","tld":".tr","genc2":"TR"}},{"type":"Feature","geometry":{"type":"Point","coordinates":[36.054853,35.906841]},"properties":{"cartodb_id":39,"country":"Turkey","designatio":"Official Camp Open","administra":"Hatay","name":"Yayladagi 2","lat":35.906841,"long":36.054853,"fips":"TU","iso_alpha2":"TR","iso_alpha3":"TUR","iso_num":792,"stanag":"TUR","tld":".tr","genc2":"TR"}},{"type":"Feature","geometry":{"type":"Point","coordinates":[38.952426,36.752998]},"properties":{"cartodb_id":40,"country":"Turkey","designatio":"Official Camp Open","administra":"Sanliurfa","name":"Akcakale","lat":36.752998,"long":38.952426,"fips":"TU","iso_alpha2":"TR","iso_alpha3":"TUR","iso_num":792,"stanag":"TUR","tld":".tr","genc2":"TR"}},{"type":"Feature","geometry":{"type":"Point","coordinates":[40.02404,36.934884]},"properties":{"cartodb_id":41,"country":"Turkey","designatio":"Official Camp Open","administra":"Sanliurfa","name":"Viransehir","lat":36.934884,"long":40.02404,"fips":"TU","iso_alpha2":"TR","iso_alpha3":"TUR","iso_num":792,"stanag":"TUR","tld":".tr","genc2":"TR"}}]}
